id,created_at,category,content,address,lon,lat,source,acceptance_no,district,is_true,goal,rectification,status,date,hour_bucket,is_located
[2025]杨浦—001号-1,2025-10-16,生态,信访人反映位于政悦路、殷行路附近的新江湾城生态走廊附近河道内有垂钓和皮划艇活动，影响生态走廊的鸟类与鱼类的生存环境，且信访人反映新江湾城生态走廊附近工程建设越来越多，沿政悦路、殷行路的人行道宽度仅保留三米左右，信访人建议应减少大量的人为活动，减少对该区域的生态环境影响。,政悦路、殷行路附近的新江湾城生态走廊附近河道内,121.50858,31.333777,https://www.shyp.gov.cn/shypq/sthjdc2025/20251016/492269.html,[2025]杨浦—001号,新江湾城街道,不属实,加强生态走廊沿线巡查和管理,1、压实河长林长责任。新江湾城街道通过“人防+技防”强化对生态走廊及周边河道的巡查，发现有破坏生态环境行为及时制止并上报相关职能部门；对其他不文明行为的主动发现、及时劝阻。通过推动林河长制宣传进校园、进社区，增强居民参与生态建设的热情、共享美丽河湖环境的理念。目前，辖区内10个监测断面水质优于Ⅲ类标准，新江湾城街道后续将协同有关部门持续关注辖区河道水质情况，保障水质环境。 2、区建管委将进一步强化生态走廊沿线市政道路巡视工作，采用智能巡查与人工巡路相结合的方式，对于道路设施进行全要素巡查。 3、区建管委将进一步严格加强工程建设项目涉路审批管理，做好涉路建设项目监管工作，减少施工期间对周边居民的影响。,已办结,2025-10-16,0,True
[2025]杨浦—002号-2,2025-10-16,大气,信访人反映控江街道双阳路588号光头羊肉汤，有烧烤油烟长期扰民情况，投诉过多次，问题未得到解决。,控江街道双阳路588号光头羊肉汤,121.529511,31.285729,https://www.shyp.gov.cn/shypq/sthjdc2025/20251016/492269.html,[2025]杨浦—002号,控江街道,不属实,加强对该店的执法监管，如发现违法行为，将依法处理。,1、控江街道综合行政执法队告知现场负责人要及时关注油烟净化设备运行情况，保障相关设备保持开启状态、做好清洁维护。 2、区生态环境局持续加强对该店的执法监管。,已办结,2025-10-16,0,True
[2025]杨浦—003号-3,2025-10-16,大气,信访人反映平凉街道杨树浦路658号中交滨江广场F座楼顶烟囱高度约27米，冬季集中供暖产生的烟有味道，影响杨树浦路633弄小区，多次投诉，该问题未解决。,平凉街道杨树浦路658号中交滨江广场F座楼顶烟囱高度约27米,121.523154,31.251671,https://www.shyp.gov.cn/shypq/sthjdc2025/20251016/492269.html,[2025]杨浦—003号,平凉路街道,部分 属实,区生态环境局将继续做好监督指导工作，并在该单位锅炉调试完成并投入使用后，组织开展该锅炉废气监督性监测，如发现锅炉废气超标将依法予以处理，确保该单位锅炉达标排放。,1、目前该单位锅炉已通过采用低氮直燃燃烧器等方式完成改造，现场检查时，锅炉未投入使用。 2、因锅炉主要用于冬季供热，目前尚不具备调试条件，待今年冬季来临，中交滨江（上海）建设管理有限公司将聘请第三方检测机构进行检测并完成验收。,阶段性办结,2025-10-16,0,True
[2025]杨浦—004号-4,2025-10-17,生态,信访人反映江浦路街道飞虹路600弄海上海小区内8号楼南，由上实物业补种的鹅掌楸死亡后未重新补种。信访人诉求为：上实物业自行出资在原址补种一颗相同树龄的鹅掌楸。承担江浦路街道绿化市容管理事务的机构，对小区加大绿化巡查管控，打造绿色宜居的小区居住环境。,江浦路街道飞虹路600弄海上海小区内8号楼南,121.509481,31.265839,https://www.shyp.gov.cn/shypq/sthjdc2025/20251017/492332.html,[2025]杨浦—004号,江浦路街道,部分属实,加强对绿化补种事宜的指导和协调,2025年10月15日上午，江浦路街道由管理办牵头，会同江浦路街道城建中心、海上海居委会、海上海宝地仲量联行物业公司召开会议，对于现场情况进行了实地走访调查，对于2025年3月5日补种的鹅掌楸是否已经死亡需进一步鉴定。根据《上海市居住区绿化调整技术规范》（沪绿容〔2023〕249号）6.4.2树木死亡鉴定应由2人（含）以上属地绿化专业技术人员书面确认。属地绿化专业技术人员包括绿化市容管理部门专技人员或绿化市容管理部门认可的其他专业人士邀请社区园艺师对该树木的死亡与否情况进行鉴定。 下一步江浦路街道将加强对绿化补种事宜的指导，委托专业人士对该补种的鹅掌楸进行死亡鉴定，若经鉴定该补种树木确已死亡，则将进一步根据业主大会流程征询推进树木补种事宜。,已办结,2025-10-17,0,True
[2025]杨浦—007号-5,2025-10-18,噪声,信访人反映控江路（打虎山路至江浦路）路段、控江路（黄兴路至军工路）路段、长阳路与眉州路交叉口3个区域内存在燃油四轮机动车、摩托车行驶过程中发动机声音过大引发炸街的现象，严重噪声扰民。曾在中央环保督察期间反映过该问题，短期有效果，长期有回潮。投诉人希望公安交管部门对上述区域进行集中整治查处，实现人力和摄像头全天候监督，并对全区范围内道路加强监管。,控江路（打虎山路至江浦路）路段、控江路（黄兴路至军工路）路段、长阳路与眉州路交叉口3个区域内存在燃油四轮机动车、摩托车行,121.530491,31.267602,https://www.shyp.gov.cn/shypq/sthjdc2025/20251018/492359.html,[2025]杨浦—007号,杨浦区,部分属实,持续关注反映问题所提到的路口摩托车噪音扰民情况。,通过系统查询，基本确认了车主信息，并进行了初步查证。后续将开展上门核查处置，如发现摩托车驾驶人有交通违法行为，将依法开展教育处罚。同时，杨浦区公安分局交管支队将持续关注生态环境督导重点，加强对重点路段的巡逻管理力度，严查严处摩托车噪音扰民违法行为。,已办结,2025-10-18,0,True
[2025]杨浦—008号-6,2025-10-18,噪声,信访人反映四平街道地铁8号线鞍山新村站1号口南侧的旭辉广场晚间6点至9点半有居民使用多台外放音响唱歌跳舞，存在噪音扰民现象。信访人多次向110及12345等渠道投诉，投诉后有阶段性改善但没有得到根治，辖区街道虽派特保巡逻，但整体管理效果较差。信访人诉求：解决噪声扰民问题，并希望提供鉴定外置扩音装置的音响器材的渠道、具体标准或相关法律法规。,四平街道地铁8号线鞍山新村站1号口南侧的旭辉广场晚间6点至9点半有居民使用多台外放音响唱歌跳舞,121.510313,31.270664,https://www.shyp.gov.cn/shypq/sthjdc2025/20251018/492359.html,[2025]杨浦—008号,四平街道,属实,深化协调管理，减少广场舞活动影响。,1、目前，公安民警到场接处警时已对现场参与广场舞的市民进行法律告知，并劝导其调低设备音量，避免对周边居民生活造成影响。2、10月16日下午，四平路街道办事处主要负责人召开旭辉广场舞、唱歌噪音扰民问题专题会议，研讨处置办法。10月16日晚，四平路街道办事处主要负责人带队，会同四平路派出所和旭辉广场物业开展联合整治，对广场舞及唱歌人员进行劝导、劝离。10月17日下午，四平路街道搭建沟通平台，梳理各方需求，协调解决广场舞、唱歌噪声扰民问题。下一步，四平路街道将综合考量法律规定和市民诉求，积极开展协调管理工作，进一步减少广场舞活动对周边居民的影响。,阶段性办结,2025-10-18,0,True
[2025]杨浦—009号-7,2025-10-18,噪声大气,信访人反映在大桥街道平凉路宁国路附近的杨浦区N090601单元I4-01地块前期施工中存在噪声、工地扬尘和柴油挖掘机尾气排放，影响了宁国路98弄小区内居民生活，现工地已停工。信访人希望后续建设施工中杜绝出现上述问题，保障周围居民正常生活。,大桥街道平凉路宁国路附近的杨浦区N090601单元I4-01地块前期施工中,121.536906,31.264566,https://www.shyp.gov.cn/shypq/sthjdc2025/20251018/492359.html,[2025]杨浦—009号,大桥街道,部分属实,持续加强巡查和监管力度。,1、待该项目取得施工许可后，区建设管理委将进一步加强对该项目文明施工的指导和管理，督促工地落实文明施工各项措施，把施工对周边居民的影响降到最低。2、大桥街道综合执法部门将持续加强对该处地块的巡查力度。3、区城管执法局将持续关注该地块在取得建筑工程施工许可证后的夜间建筑施工作业情况，同时做好执法和普法宣传工作。4、区生态环境局将会同区建设管理、城管、所属街道等部门（单位），加强对该工地开工后的扬尘、噪声管理，加强柴油挖掘机尾气的排放监管，减少施工过程产生的环境影响。,已办结,2025-10-18,0,True
[2025]杨浦—010号-8,2025-10-19,大气,信访人反映五角场街道伟德路10弄小区的中心花园从2025年夏季起至今，在雨后会出现明显腐败气味，影响居民正常生活。,五角场街道伟德路10弄小区的中心花园从2025年夏季起至今,121.50755,31.304333,https://www.shyp.gov.cn/shypq/sthjdc2025/20251019/492360.html,[2025]杨浦—010号,五角场街道,属实,加强小区综合管理，保障居民正常生活环境。,五角场街道召开专题会议研究整改措施，具体内容包括： 一是加强保洁，五角场街道督促物业对居民投诉的中心花园加强清理力度，由每日一次增加为每日上午、下午各一次。 二是加强消杀，五角场街道会同物业对小区增加消杀频次，由每月一次增加至半月一次，对中心花园及其他卫生死角，增加使用无害且能去除异味的空气清新剂。 三是加强巡查，五角场街道督促物业、居委会增加日常巡查频次，及时驱离小区内的流浪猫狗。 四是加强宣传，五角场街道会同居委会在小区显著位置张贴标识标牌，倡导文明遛宠，减少流浪猫狗投喂，共同维护社区环境。,已办结,2025-10-19,0,True
[2025]杨浦—011号-9,2025-10-19,垃圾,信访人反映平凉路1834号与平凉路1814号杨浦区牙防所之间道路上的垃圾厢房，异味扰民且存在干湿垃圾混投的现象。信访人希望解决上述垃圾厢房问题，建立常态化管理机制，防止回潮。,平凉路1834号与平凉路1814号杨浦区牙防所之间道路上的垃圾厢房,121.544535,31.269046,https://www.shyp.gov.cn/shypq/sthjdc2025/20251019/492360.html,[2025]杨浦—011号,大桥街道,属实,加强巡查和管理，确保周边环境整洁和垃圾分类实效。,1、大桥街道组织力量对该垃圾厢房周边开展环境综合整治，确保周边环境整洁。 2、完成该垃圾厢房垃圾分类投放设施的清洁和更新。 3、加强日常巡查和现场管理，确保点位垃圾分类实效巩固。 4、结合美丽家园改造，对该垃圾厢房开展改造提升。,已办结,2025-10-19,0,True
[2025]杨浦—013号-10,2025-10-20,水,信访人来电反映1、平凉路街道安浦路501号丹东泵站雨天放江时，水中漂浮生活垃圾和类似地沟油结块，并有恶臭味道。2、长白新村街道上海电缆厂近黄浦江的民星南泵站雨天放江时，水体黑臭。信访人希望相关部门能解决排放水质黑臭问题。,1、平凉路街道安浦路501号丹东泵站雨天放江时,121.540348,31.259217,https://www.shyp.gov.cn/shypq/sthjdc2025/20251020/492475.html,[2025]杨浦—013号,杨浦区,属实,会同市排水公司做好管道运维管理和市管泵站管理。,1、在丹东泵站区域加强道路雨水口清捞和管道清淤，减少入河污染物。同时，联系市排水公司持续优化泵站调度模式，按照《上海市合流制泵站雨天溢流管控要求（试行）》加强运行管理工作，减少入河污染物。 2、在民星南泵站区域加强道路雨水口清捞和管道清淤，持续开展雨污混接整治。同时，联系市排水公司持续优化泵站调度模式，减少入河污染物。,已办结,2025-10-20,0,True
[2025]杨浦—014号-11,2025-10-20,生态,信访人认为《群众信访举报转办及被督察区查处情况一览表》中的受理编号为[2025]杨浦—004号信访件，调查核实情况中“海上海上实物业于2025年3月5日又在原地址进行了鹅掌楸树木补种”这一回复与事实不符，表示有照片可证明2025年3月5日上实物业未在原址进行鹅掌楸补种。,地址缺失,,,https://www.shyp.gov.cn/shypq/sthjdc2025/20251020/492475.html,[2025]杨浦—014号,江浦路街道,不属实,加强对绿化补种事宜的指导，根据业主大会流程征询推进树木补种事宜。,下一步，江浦路街道将加强对绿化补种事宜的指导，根据业主大会流程征询推进树木补种事宜。,已办结,2025-10-20,0,False
[2025]杨浦—015号-12,2025-10-22,噪声,信访人反映10.18日至10.19日，定海路街道共青路130号复兴岛船台公园举办的音乐节的演唱活动及音响设备调试过程中，有噪声影响，另外复兴岛内起飞的直升机，飞行期间产生的噪声影响浦东新区博兴路616弄博二小区、栖山路1899弄蝶恋园社区、浦东大道2641弄寺前浜小区和莱阳路111弄中星嘉来苑小区居民生活。信访人诉求为：要求主办方尽早结束活动，采取措施降低音乐节举办期间的噪声影响，减少直升机飞行的噪声影响，并希望相关部门对易产生噪声的活动加强监管，减少对居民生活的影响。,10.18日至10.19日,121.525409,31.259588,https://www.shyp.gov.cn/shypq/sthjdc2025/20251022/492676.html,[2025]杨浦—015号,定海路街道,属实,加强监控，尽量减少环境影响。,活动期间，主办方已在现场安排专人对音量等场控进行实时监控，全力推进音量管控。活动已于10月19日结束。对于直升机飞行事宜将沟通协调相关企业。,已办结,2025-10-22,0,True
[2025]杨浦—019号-13,2025-10-22,大气,信访人反映延吉新村街道水丰路43号杨浦环境发展有限公司第一分公司产生的臭味，影响水丰路15弄小区居民的生活。水丰路近周家嘴路区域，下雨天后路上会明显闻到臭味。信访人希望解决臭味问题，并询问在居民区附近集中停放垃圾车是否合法合规。,延吉新村街道水丰路43号杨浦环境发展,121.542769,31.280663,https://www.shyp.gov.cn/shypq/sthjdc2025/20251022/492676.html,[2025]杨浦—019号,延吉新村街道,不属实,/,杨浦环境发展有限公司第一分公司将继续做好场地周边气味监测工作，如发现异常情况，及时处置，并加强环卫日常工作精细化管理，减少异味产生。,已办结,2025-10-22,0,True
[2025]杨浦—021号-14,2025-10-23,其他,信访人反映大桥街道眉州路185号至眉州路199号路段的眉州路人行道绿化带内，每日10:00至18：00常有共享单车和私人两轮电动车等非机动车乱停放占用绿化带现象。信访人诉求为：相关部门对此类问题加强监管，建立长效管理机制，防止问题回潮。,大桥街道眉州路185号至眉州路199号路段的眉州路人行道绿化带内,121.53622,31.259425,https://www.shyp.gov.cn/shypq/sthjdc2025/20251023/492757.html,[2025]杨浦—021号,大桥街道,不属实,/,大桥街道综合行政执法队将加强巡查，发现违法违规行为及时处理。,已办结,2025-10-23,0,True
[2025]杨浦—022号-15,2025-10-23,其他,信访人反映殷行街道市光路跨铁路人行桥近军工路处，每日9:30至22:00常有1辆面包车占道设摊售卖活禽，地面羽毛影响周围环境。信访人诉求为：相关部门对此类问题加强监管，建立长效管理机制，防止问题回潮。,殷行街道市光路跨铁路人行桥近军工路处,121.524796,31.321575,https://www.shyp.gov.cn/shypq/sthjdc2025/20251023/492757.html,[2025]杨浦—022号,殷行街道,部分属实,加强执法巡查，规范经营行为。,1、针对当事人擅自占道设摊经营的违法行为，殷行街道综合行政执法队依据相关法律法规给予其行政处罚。 2、殷行街道将加强对该处点位的执法巡查，同时宣传引流该当事人通过合法途径从事售卖经营活动。,已办结,2025-10-23,0,True
[2025]杨浦—023号-16,2025-10-23,其他,信访人反映大桥街道锦州湾路近宁国路，7至9月每日11：00至20：00路边常有卡车（如：车牌号为沪DMB212等）占道设摊售卖西瓜。信访人诉求为：相关部门对此类问题加强监管，建立长效管理机制，防止问题回潮。,大桥街道锦州湾路近宁国路,121.536906,31.264566,https://www.shyp.gov.cn/shypq/sthjdc2025/20251023/492757.html,[2025]杨浦—023号,大桥街道,属实,加强日常巡查，依法依规处理占道设摊经营行为。,1、大桥街道执法人员责令其立即整改，并依法给予其行政处罚。 2、大桥街道将继续加强对该区域的日常巡查，发现违法违规行为及时处理。,已办结,2025-10-23,0,True
[2025]杨浦—024号-17,2025-10-23,其他,信访人反映殷行街道中原路62-1号临至中原路66号临的路段，每日上午和傍晚有市民遛狗不牵绳和不清理狗屎的现象。信访人诉求为：相关部门对此类问题加强监管，建立长效管理机制，防止问题回潮。,殷行街道中原路62-1号临至中原路66号临的路段,121.532203,31.312943,https://www.shyp.gov.cn/shypq/sthjdc2025/20251023/492757.html,[2025]杨浦—024号,殷行街道,不属实,/,"殷行街道将加大该路段的执法巡查力度，宣传引导宠物饲养人文明养宠,遛狗牵绳、及时清理狗屎。",已办结,2025-10-23,0,True
[2025]杨浦—025号-18,2025-10-23,噪声,信访人反映大桥街道眉州路374号的珍味小梅园，每日11:00至20:00店铺门口处放置喇叭，循环播放促销内容，严重噪声扰民。信访人诉求为：相关部门对此类问题加强监管，建立长效管理机制，防止问题回潮。,大桥街道眉州路374号的珍味小梅园,121.535244,31.261575,https://www.shyp.gov.cn/shypq/sthjdc2025/20251023/492757.html,[2025]杨浦—025号,大桥街道,不属实,/,1、大桥街道执法人员现场向该店铺负责人进行普法宣传。 2、大桥街道将持续加强对眉州路及其延伸区域路面店铺的巡查与监管，防止喇叭噪声扰民情况发生。,已办结,2025-10-23,0,True
[2025]杨浦—026号-19,2025-10-23,噪声,信访人反映大桥街道眉州路376号的鲜奶联营店，每日11:00至20:00店铺门口处放置喇叭，循环播放促销内容，严重噪声扰民。信访人诉求为：相关部门对此类问题加强监管，建立长效管理机制，防止问题回潮。,大桥街道眉州路376号的鲜奶联营店,121.53518,31.261639,https://www.shyp.gov.cn/shypq/sthjdc2025/20251023/492757.html,[2025]杨浦—026号,大桥街道,不属实,/,1、大桥街道执法人员现场向该店铺负责人进行普法宣传。 2、大桥街道将持续加强对眉州路及其延伸区域路面店铺的巡查与监管，防止喇叭噪声扰民情况发生。,已办结,2025-10-23,0,True
[2025]杨浦—027号-20,2025-10-23,噪声,信访人反映大桥街道平凉路1185号的鑫贺轩，每日11:00到20:00店铺门口处放置喇叭，循环播放促销内容，严重噪声扰民。信访人诉求为：相关部门对此类问题加强监管，建立长效管理机制，防止问题回潮。,大桥街道平凉路1185号的鑫贺轩,121.534091,31.261895,https://www.shyp.gov.cn/shypq/sthjdc2025/20251023/492757.html,[2025]杨浦—027号,大桥街道,不属实,/,1、大桥街道执法人员现场向该店铺负责人进行普法宣传。 2、大桥街道将持续加强对平凉路1185号及其周边区域路面店铺的巡查与监管，防止喇叭噪声扰民情况发生。,已办结,2025-10-23,0,True
[2025]杨浦—028号-21,2025-10-23,噪声,信访人反映长海路街道中原路85号无店招门面店铺，每日11:00至20:00店铺门口处放置喇叭播放宣传内容，严重噪声扰民。信访人诉求为：相关部门对此类问题加强监管，建立长效管理机制，防止问题回潮。,长海路街道中原路85号无店招门面店铺,121.531772,31.312789,https://www.shyp.gov.cn/shypq/sthjdc2025/20251023/492757.html,[2025]杨浦—028号,长海路街道,不属实,/,1、长海路街道执法人员对店家进行普法宣传。 2、加强日常巡查，防止喇叭噪声扰民。,已办结,2025-10-23,0,True
[2025]杨浦—029号-22,2025-10-23,噪声,信访人反映殷行街道中原路70-1号的罗丽丝服装店，每日11:00至20:00店铺门口处放置喇叭，循环播放促销内容，严重噪声扰民。信访人诉求：相关部门对此类问题加强监管，建立长效管理机制，防止问题回潮。,殷行街道中原路70-1号的罗丽丝服装店,121.532191,31.313296,https://www.shyp.gov.cn/shypq/sthjdc2025/20251023/492757.html,[2025]杨浦—029号,殷行街道,属实,加强对经营性喇叭噪声的监管。,殷行街道执法人员现场要求罗丽丝服装店关停高音喇叭。同时，向当事人进行普法宣传，告知其经营行为应避免影响周边居民生活。,已办结,2025-10-23,0,True
[2025]杨浦—030号-23,2025-10-23,噪声,信访人反映长海路街道中原路87号的胖美眉服装店，每日11:00至20:00店铺门口处放置喇叭，循环播放促销内容，严重噪声扰民。信访人诉求为：相关部门对此类问题加强监管，建立长效管理机制，防止问题回潮。,长海路街道中原路87号的胖美眉服装店,121.531784,31.312987,https://www.shyp.gov.cn/shypq/sthjdc2025/20251023/492757.html,[2025]杨浦—030号,长海路街道,不属实,/,1、长海路街道执法人员对店家进行普法宣传。 2、加强日常巡查，防止喇叭噪声扰民。,已办结,2025-10-23,0,True
[2025]杨浦—031号-24,2025-10-24,噪声,信访人代表军工路400弄时运苑业委会反映，该小区西侧的高架路上，车辆行驶过程中产生的噪声影响小区居民生活。该业委会聘请南京宁韵环境检测有限公司检测后，出具的CMA报告中点位的昼间等效声级、夜间等效声级（Leq）均超过《声环境质量标准》（GB3096-2008）中的环境噪声限值。信访人诉求：解决高架路噪声扰民问题。,地址缺失,,,https://www.shyp.gov.cn/shypq/sthjdc2025/20251024/492846.html,[2025]杨浦—031号,定海街道,属实,区建管委将积极与相关部门沟通。,针对反映的情况，区建管委已将有关诉求及相关线索向中环线高架运维主管部门市道运中心反馈，并及时与主管部门沟通跟进。,已办结,2025-10-24,0,False
[2025]杨浦—034号-25,2025-10-26,大气,信访人反映在长海路街道国和路445弄1号楼和4号楼之间，国和路教堂斜对面，有小四川、小山东等三家餐饮店，中午和晚上用餐时间，油烟扰民。信访人诉求：解决油烟扰民问题。,长海路街道国和路445弄1号楼和4号楼之间,121.519829,31.308936,https://www.shyp.gov.cn/shypq/sthjdc2025/20251026/492847.html,[2025]杨浦—034号,长海路街道,属实,加强对3家餐饮店油烟净化设施、异味处理设施的监管，确保设备正常运行。,1、要求3家餐饮店要及时关注油烟净化设备运行情况，保障相关设备保持开启状态，确保设备正常运行。 2、要求3家餐饮店加强油烟净化设施清洗保养维护，规范油烟净化设施台账记录。 3、针对“山东菜馆”无异味处理设施的问题，长海街道综合行政执法队将约谈该店铺负责人作后续处理。,阶段性办结,2025-10-26,0,True
[2025]杨浦—035号-26,2025-10-26,垃圾,信访人反映在大桥街道眉州路1055弄的保利越秀和樾天汇小区北侧的垃圾厢房门前坡道处（靠近互联宝地T2楼，该小区与金隅外滩东岸之间无名道路区域），小区物业日常（早、中、晚不定时）将垃圾桶和垃圾车停放在该处，污染地面并产生异味，影响周围环境。信访人主要诉求：禁止物业在坡道堆放垃圾桶和停放垃圾车，保持该处周边环境卫生，物业垃圾作业应在小区内部处置。,大桥街道眉州路1055弄的保利越秀和樾天汇小区北侧的垃圾厢房门前坡道处（靠近互联宝地T2楼,121.526548,31.270438,https://www.shyp.gov.cn/shypq/sthjdc2025/20251026/492847.html,[2025]杨浦—035号,大桥街道,部分属实,加强管理，营造干净整洁的小区居住环境。,大桥街道工作人员指导小区按照垃圾分类要求做好垃圾分类工作，及时清运，并告知小区物业单位，垃圾箱房门口坡道不可停放车辆，除垃圾清运期间，其余时间不可将垃圾桶摆放在坡道上，同时做好坡道的清洁工作，避免脏污及异味产生。小区物业将按要求做好后续管理工作。,已办结,2025-10-26,0,True
[2025]杨浦—036号-27,2025-10-27,生态噪声垃圾其他,1、信访人对群众信访举报转办及被督察区查处情况一览表中编号为：[2025]杨浦—021号、[2025]杨浦—024号、 [2025]杨浦—026号、[2025]杨浦—028号、[2025]杨浦—030号“是否属实”一栏中的“不属实”答复，表示不满意。信访人表示来信附有明显证据照片，核实结果至少应该为“部分属实”。信访人诉求：重新核实。,地址缺失,,,https://www.shyp.gov.cn/shypq/sthjdc2025/20251027/492970.html,[2025]杨浦—036号,杨浦区,部分属实,加强管理，营造整洁有序的城市环境。,[2025]杨浦—021号：为杜绝此现象，大桥街道执法人员采取以下措施：1.临时用警戒带将绿化带与人行道进行隔离。2.安排人员加强在该时间段内的巡查，规整车辆摆放并引导骑行人员正确停放车辆。 [2025]杨浦—024号：鉴于行为发生的随机性，殷行街道将持续加强该路段的执法巡查力度，增加该路段巡查频次；依法告知宠物饲养人文明养宠，遛狗牵绳、及时清理狗屎，对于拒不配合的，依法予以处理。 [2025]杨浦—026号：大桥街道执法人员现场对该店铺负责人做好普法宣传工作，告知该店铺负责人，在经营活动中禁止有噪音扰民的情况。因该处情况具有动态性，执法人员将持续加强对眉州路及其延伸区域路面店铺的巡查与监管，预防喇叭叫卖，防止噪声扰民现象发生。 [2025]杨浦—028号：长海街道执法人员现场对相关店铺负责人进行普法宣传，告知其在经营活动中禁止有噪音扰民的情况。因该处情况具有动态性，后续执法人员将持续加强对中原路沿街店铺的巡查，防止喇叭叫卖噪声扰民现象的发生。 [2025]杨浦—030号：长海街道执法人员现场对相关店铺负责人进行普法宣传，告知其在经营活动中禁止有噪音扰民的情况。因该处情况具有动态性，后续执法人员将持续加强对中原路沿街店铺的巡查，防止喇叭叫卖噪声扰民现象的发生。,已办结,2025-10-27,0,False
[2025]杨浦—036号-28,2025-10-27,生态噪声垃圾其他,2、信访人反映长白街道控江路18弄14号居民楼内，存在楼道堆物情况，影响环境卫生。信访人诉求为：相关部门对此类问题加强监管，建立长效管理机制，防止问题回潮。,长白街道控江路18弄14号居民楼内,121.548495,31.290155,https://www.shyp.gov.cn/shypq/sthjdc2025/20251027/492970.html,[2025]杨浦—036号,长白新村街道,属实,加强管理，营造整洁有序的城市环境。,小区居委和物业已组织人员对楼道内堆物进行清理。,已办结,2025-10-27,0,True
[2025]杨浦—036号-29,2025-10-27,生态噪声垃圾其他,3、信访人反映定海路街道复兴岛定海桥上人行道内，每日9:30至16:30，有违规垂钓情况，破坏河道生态环境。信访人诉求为：相关部门对此类问题加强监管，建立长效管理机制，防止问题回潮。,定海路街道复兴岛定海桥上人行道内,121.562683,31.273121,https://www.shyp.gov.cn/shypq/sthjdc2025/20251027/492970.html,[2025]杨浦—036号,定海路街道,部分属实,加强管理，营造整洁有序的城市环境。,定海街道执法人员将加强巡查，依法对垂钓者进行劝导。,已办结,2025-10-27,0,True
[2025]杨浦—036号-30,2025-10-27,生态噪声垃圾其他,4、信访人反映长海路街道翔殷路海军特色医学中心附近人行过街地道口，有夜间偷倒建筑垃圾现象，严重影响城市环境卫生。信访人诉求为：相关部门对此类问题加强监管，建立长效管理机制，防止问题回潮。,长海路街道翔殷路海军特色医学中心附近人行过街地道口,121.524967,31.304185,https://www.shyp.gov.cn/shypq/sthjdc2025/20251027/492970.html,[2025]杨浦—036号,长海路街道,部分属实,加强管理，营造整洁有序的城市环境。,长海街道将加强对翔殷路海军特色医学中心附近人行地道口周边区域的巡查，并安装隔离设施，对该区域采取有效管控，保障区域市容环境整洁卫生。,已办结,2025-10-27,0,True
[2025]杨浦—036号-31,2025-10-27,生态噪声垃圾其他,5、信访人反映大桥街道平凉路1195号的来伊份，周末及节假日10：00至19：00，在店铺门口处放置喇叭，循环播放促销内容，严重噪声扰民。诉求：督促相关部门联合执法，加强商铺噪声监管，防止问题回潮。,大桥街道平凉路1195号的来伊份,121.534404,31.262134,https://www.shyp.gov.cn/shypq/sthjdc2025/20251027/492970.html,[2025]杨浦—036号,大桥街道,部分属实,加强管理，营造整洁有序的城市环境。,大桥街道执法人员现场向该店铺负责人进行普法宣传，并加强对该路段和周边区域的巡查，一经发现噪声扰民现象，依法予以处理。,已办结,2025-10-27,0,True
[2025]杨浦—036号-32,2025-10-27,生态噪声垃圾其他,6、信访人反映大桥街道长阳路、黄兴路路口（12号线宁国路站2号出口），9:30至18:00左右，长阳路人行道上有共享单车乱停放情况，占用盲道，影响盲人通行及市容环境。信访人诉求为：相关部门对此类问题加强监管，建立长效管理机制，防止问题回潮。,大桥街道长阳路、黄兴路路口（12号线宁国路站2号出口）,121.536906,31.264566,https://www.shyp.gov.cn/shypq/sthjdc2025/20251027/492970.html,[2025]杨浦—036号,大桥街道,属实,加强管理，营造整洁有序的城市环境。,大桥街道执法人员立即通知共享单车公司进行清运和规范摆放，并对占用盲道的车辆进行清理。,已办结,2025-10-27,0,True
[2025]杨浦—036号-33,2025-10-27,生态噪声垃圾其他,7、信访人反映控江街道控江路1042号—1044号沿街店铺门口人行道上，每日上午和傍晚遛狗高峰时段，有市民遛狗不牵绳和不清理狗屎的现象。信访人诉求为：相关部门对此类问题加强监管，建立长效管理机制，防止问题回潮。,控江街道控江路1042号—1044号沿街店铺门口人行道上,121.530384,31.279648,https://www.shyp.gov.cn/shypq/sthjdc2025/20251027/492970.html,[2025]杨浦—036号,控江路街道,部分属实,加强管理，营造整洁有序的城市环境。,控江街道安排环卫作业队伍立即对遗留在地面的狗粪进行清理，并在遛狗高峰时段增加巡查频次，引导市民文明遛狗，如发现未牵绳、污染环境行为及时予以劝阻。,已办结,2025-10-27,0,True
[2025]杨浦—038号-34,2025-10-28,垃圾,信访人来信反映大桥街道万汇公寓西侧渭南路的人行道上，经常存在乱堆放建筑垃圾和生活垃圾的情况，影响市容环境和行人行走。信访人诉求为：相关部门加强日常巡查监管力度，发现情况及时处置。,大桥街道万汇公寓西侧渭南路的人行道上,121.536226,31.263405,https://www.shyp.gov.cn/shypq/sthjdc2025/20251028/493067.html,[2025]杨浦—038号,大桥街道,部分属实,加强管理，营造整洁有序的城市环境。,1、属地居委和物业单位加大宣传力度，劝导周边小区居民不在此处偷倒装潢垃圾。 2、加强巡查，一经发现该处有垃圾堆放情况，立即组织清运。,已办结,2025-10-28,0,True
[2025]杨浦—039号-35,2025-10-28,大气,信访人来信反映大桥街道眉州路近沈阳路路口的“马三牛肉煎包”，每日7:00至19:00存在店铺油煎异味扰民情况。信访人诉求为：相关部门加强日常巡查监管力度，发现该类情况及时处置。,大桥街道眉州路近沈阳路路口的“马三牛肉煎包”,121.535669,31.260775,https://www.shyp.gov.cn/shypq/sthjdc2025/20251028/493067.html,[2025]杨浦—039号,大桥街道,属实,加强餐饮油烟管理。,大桥街道执法人员开具责令改正通知书，要求该店限期整改。,阶段性办结,2025-10-28,0,True
[2025]杨浦—040号-36,2025-10-28,大气,信访人来信反映大桥街道平凉路1263号“悠优香休闲食品”，每年秋季至春季的10:00至19:00，炒货机器炒制炒货的过程中烟气影响路人。信访人诉求为：相关部门加强日常巡查监管力度，发现该类情况及时处置。,大桥街道平凉路1263号“悠优香休闲食品”,121.53534,31.262535,https://www.shyp.gov.cn/shypq/sthjdc2025/20251028/493067.html,[2025]杨浦—040号,大桥街道,部分属实,加强管理，对违法违规行为依法予以处理。,大桥街道执法人员对店铺负责人开展普法宣传，告知其合法合规经营。同时将加强巡查，一经发现违法违规行为依法予以处理。,已办结,2025-10-28,0,True
[2025]杨浦—041号-37,2025-10-28,大气,信访人来信反映大桥街道眉州路274号“傻奇炒货”，每年秋季至春季的10:00至19:00，炒货机器炒制炒货的过程中烟气影响路人。信访人诉求为：相关部门加强日常巡查监管力度，发现该类情况及时处置。,大桥街道眉州路274号“傻奇炒货”,121.536553,31.260693,https://www.shyp.gov.cn/shypq/sthjdc2025/20251028/493067.html,[2025]杨浦—041号,大桥街道,部分属实,加强管理，对违法违规行为依法予以处理。,大桥街道执法人员对店铺负责人开展普法宣传，告知其合法合规经营。同时将加强巡查，一经发现违法违规行为依法予以处理。,已办结,2025-10-28,0,True
[2025]杨浦—042号-38,2025-10-28,其他,信访人来信反映大桥街道河间路89-1号“张氏果业”，每日9:00至19:00，堆放甘蔗在店铺附近的人行道上，影响市容环境。信访人诉求为：相关部门加强日常巡查监管力度，发现情况及时处置。,大桥街道河间路89-1号“张氏果业”,121.53244,31.264531,https://www.shyp.gov.cn/shypq/sthjdc2025/20251028/493067.html,[2025]杨浦—042号,大桥街道,部分属实,加强管理，营造整洁有序的城市环境。,大桥街道执法人员对店铺负责人进行普法宣传，告知其合法合规经营。同时将加强巡查，一经发现违法违规行为依法予以处理。,已办结,2025-10-28,0,True
[2025]杨浦—043号-39,2025-10-28,其他,信访人来信反映大桥街道平凉路与渭南路交叉口，位于平凉路上的一家沿街水果店铺，每日10:30至19:00，店铺门口有占道乱堆放甘蔗、甘蔗皮及废旧箩筐纸板箱的现象，影响市容环境卫生。信访人诉求为：相关部门对此类问题加强监管，建立长效管理机制，防止问题回潮。,大桥街道平凉路与渭南路交叉口,121.536003,31.262823,https://www.shyp.gov.cn/shypq/sthjdc2025/20251028/493067.html,[2025]杨浦—043号,大桥街道,属实,加强管理，营造整洁有序的城市环境。,大桥街道执法人员现场要求该水果店立即改正，将占用人行道堆放的甘蔗和纸箱收回店中。执法人员复查时，该水果店占用人行道的行为已改正。,已办结,2025-10-28,0,True
[2025]杨浦—044号-40,2025-10-28,其他,信访人来信反映大桥街道平凉路1231-1号“漫顿进口食品”， 每日10:30至19:00，存在店铺门口及周边乱堆放纸板箱情况，影响城市环境卫生。信访人诉求为：相关部门加强日常巡查监管力度，发现情况及时处置。,大桥街道平凉路1231-1号“漫顿进口食品”,121.534841,31.262294,https://www.shyp.gov.cn/shypq/sthjdc2025/20251028/493067.html,[2025]杨浦—044号,大桥街道,属实,加强管理，营造整洁有序的城市环境。,1、大桥街道执法人员现场要求该店铺立即改正，对占道堆放的纸箱进行清理。执法人员复查时，发现该店铺仍然存在占道堆放纸箱的情况，执法人员对该店铺进行当场处罚，要求其立即完成整改。 2、大桥街道执法人员将加强巡查，防止问题反复。,已办结,2025-10-28,0,True
[2025]杨浦—045号-41,2025-10-28,其他,信访人来信反映大桥街道眉州路272号 “农副产品”，每日10:00至19:00有占道售卖水产品的现象，影响市容环境。信访人诉求为：相关部门加强日常巡查监管力度，发现情况及时处置。,大桥街道眉州路272号 “农副产品”,121.530882,31.282015,https://www.shyp.gov.cn/shypq/sthjdc2025/20251028/493067.html,[2025]杨浦—045号,大桥街道,部分属实,加强管理，营造整洁有序的城市环境。,大桥街道执法人员对店铺负责人进行普法宣传，告知其合法合规经营。同时将加强巡查，一经发现违法违规行为依法予以处理。 针对有居民在拣菜的行为，执法人员现场进行了劝阻，并告知其将道路上的菜叶清理干净，确保道路整洁。,已办结,2025-10-28,0,True
[2025]杨浦—046号-42,2025-10-28,其他,信访人来信反映大桥街道平凉路1247号“鸿盛点心”以南的人行道上，每日上午和傍晚遛狗高峰时段，有市民遛狗不牵绳和不清理狗屎的现象，影响市容环境卫生。信访人诉求为：相关部门加强日常巡查监管力度，发现情况及时处置。,大桥街道平凉路1247号“鸿盛点心”以南的人行道上,121.535227,31.26248,https://www.shyp.gov.cn/shypq/sthjdc2025/20251028/493067.html,[2025]杨浦—046号,大桥街道,部分属实,加强管理，营造整洁有序的城市环境。,1、属地居委加大宣传力度，提倡文明养犬、文明遛宠。 2、加强巡查，如发现有遗留狗粪，立即进行清理。,已办结,2025-10-28,0,True
[2025]杨浦—047号-43,2025-10-28,其他,信访人来信反映大桥街道眉州路近平凉路路口的“渭南菜市”以东的人行道上，每日上午和傍晚遛狗高峰时段，有市民遛狗不牵绳和不清理狗屎的现象，影响市容环境卫生。信访人诉求为：相关部门加强日常巡查监管力度，发现情况及时处置。,大桥街道眉州路近平凉路路口的“渭南菜市”以东的人行道上,121.534403,31.262227,https://www.shyp.gov.cn/shypq/sthjdc2025/20251028/493067.html,[2025]杨浦—047号,大桥街道,部分属实,加强管理，营造整洁有序的城市环境。,1、属地居委加大宣传力度，提倡文明养犬、文明遛宠。 2、加强巡查，如发现有遗留狗粪，立即进行清理。,已办结,2025-10-28,0,True
[2025]杨浦—048号-44,2025-10-28,其他,信访人来信反映大桥街道长阳路1514号至长阳路的地铁12号线宁国路站5号口的路段，每日9:30-20:00有非机动车和共享单车乱停放占用人行道的现象。信访人诉求为：相关部门加强日常巡查监管力度，发现占道乱停放情况及时处置。,大桥街道长阳路1514号至长阳路的地铁12号线宁国路站5号口的路段,121.532014,31.26743,https://www.shyp.gov.cn/shypq/sthjdc2025/20251028/493067.html,[2025]杨浦—048号,大桥街道,部分属实,加强管理，营造整洁有序的城市环境。,因该处情况具有动态性，执法人员将持续加强巡查，避免出现非机动车和共享单车占用人行道的现象。,已办结,2025-10-28,0,True
[2025]杨浦—049号-45,2025-10-29,噪声其他,1、信访人反映控江街道双阳路548号，1楼住宅存在居改非现象，每日10：00至19:00，售卖和更换汽车轮胎，影响小区环境且噪声扰民。信访人诉求：相关部门联合执法，解决该类问题，建立长效管理机制。,控江街道双阳路548号,121.530346,31.285859,https://www.shyp.gov.cn/shypq/sthjdc2025/20251029/493166.html,[2025]杨浦—049号,杨浦区,部分属实,加强管理，营造整洁有序的城市环境。,控江街道执法人员当场清理其门口使用的经营物件，对该店负责人进行谈话，做好相关笔录，同时告知其该房屋只能用于居住，不得用于经营。该店店主经谈话后，目前已停止经营活动。,已办结,2025-10-29,0,True
[2025]杨浦—049号-46,2025-10-29,噪声其他,2、信访人反映控江街道双阳路538号，存在居改非现象，经营铝合金门窗，节假日10：00至18:00，切割机噪声扰民。信访人怀疑该店无加工资质。信访人诉求：相关部门联合执法，解决该类问题，建立长效管理机制。,控江街道双阳路538号,121.530348,31.285234,https://www.shyp.gov.cn/shypq/sthjdc2025/20251029/493166.html,[2025]杨浦—049号,杨浦区,部分属实,加强管理，营造整洁有序的城市环境。,控江街道执法人员当场清理其门口使用的经营物件，对该店负责人进行谈话，做好相关笔录，同时告知其该房屋只能用于居住，不得用于经营。该店店主经谈话后，目前已停止经营活动。,已办结,2025-10-29,0,True
[2025]杨浦—049号-47,2025-10-29,噪声其他,3、信访人反映大桥街道眉州路185号至沈阳路的眉州路人行道，每日上午和傍晚遛狗高峰时段，有市民遛狗不牵绳和不清理狗屎的现象，影响市容环境卫生。信访人诉求为：相关部门加强该段路日常巡查监管力度，针对该类问题建立长效管理机制。,大桥街道眉州路185号至沈阳路的眉州路人行道,121.53622,31.259425,https://www.shyp.gov.cn/shypq/sthjdc2025/20251029/493166.html,[2025]杨浦—049号,杨浦区,部分属实,加强管理，营造整洁有序的城市环境。,1、属地居委加大宣传力度，提倡文明养犬、文明遛宠。 2、加强巡查，如发现有遗留狗粪，立即进行清理。,已办结,2025-10-29,0,True
[2025]杨浦—049号-48,2025-10-29,噪声其他,4、信访人反映大桥街道眉州路451-1号至眉州路431弄路段，每日上午和傍晚遛狗高峰时段，有市民遛狗不牵绳和不清理狗屎的现象，影响市容环境卫生。信访人诉求为：相关部门加强该段路日常巡查监管力度，针对该类问题建立长效管理机制。,大桥街道眉州路451-1号至眉州路431弄路段,121.532007,31.261228,https://www.shyp.gov.cn/shypq/sthjdc2025/20251029/493166.html,[2025]杨浦—049号,杨浦区,部分属实,加强管理，营造整洁有序的城市环境。,1、属地居委加大宣传力度，提倡文明养犬、文明遛宠。 2、加强巡查，如发现有遗留狗粪，立即进行清理。,已办结,2025-10-29,0,True
[2025]杨浦—049号-49,2025-10-29,噪声其他,5、信访人反映延吉新村街道安图路173号凯跃门窗，节假日10：00至17:30，切割机噪声扰民。信访人怀疑该店无加工资质。信访人诉求：相关部门核实处理，解决该类问题，建立长效管理机制。,延吉新村街道安图路173号凯跃门窗,121.539547,31.293684,https://www.shyp.gov.cn/shypq/sthjdc2025/20251029/493166.html,[2025]杨浦—049号,杨浦区,部分属实,加强管理，营造整洁有序的城市环境。,延吉新村街道执法人员进一步加强街面巡查力度，如发现该店铺存在噪音扰民行为，将依法严肃处理。,已办结,2025-10-29,0,True
[2025]杨浦—049号-50,2025-10-29,噪声其他,6、信访人反映延吉新村街道安图路163号至安图路165号无店招的店铺，节假日10：00至17:00，切割机噪声扰民。信访人怀疑店铺无工商执照。信访人诉求：相关部门核实处理，解决该类问题，建立长效管理机制。,延吉新村街道安图路163号至安图路165号无店招的店铺,121.540225,31.293231,https://www.shyp.gov.cn/shypq/sthjdc2025/20251029/493166.html,[2025]杨浦—049号,杨浦区,部分属实,加强管理，营造整洁有序的城市环境。,延吉新村街道执法人员进一步加强街面巡查力度，如发现该店铺存在噪音扰民行为，将依法严肃处理。,已办结,2025-10-29,0,True
[2025]杨浦—049号-51,2025-10-29,噪声其他,7、信访人反映延吉新村街道靖宇东路延吉中路路口，地铁8号线延吉中路站3号出入口外的广场（靠近小世界），每日18:45至22:00有2名演唱者使用高音喇叭收费演唱，严重噪声扰民。信访人诉求：相关部门在演唱时段联合执法，解决该类问题，建立长效管理机制。,延吉新村街道靖宇东路延吉中路路口,121.534941,31.288543,https://www.shyp.gov.cn/shypq/sthjdc2025/20251029/493166.html,[2025]杨浦—049号,杨浦区,部分属实,加强管理，营造整洁有序的城市环境。,延吉新村街道执法部门已将该区域列入每日例行巡查范围，并请小世界广场物业管理方指派专职安保人员在重点时段进行值守，发现噪音扰民问题及时处置。,已办结,2025-10-29,0,True
[2025]杨浦—049号-52,2025-10-29,噪声其他,8、信访人反映长海路街道恒仁路21号上海承斐商贸有限公司，经营金属材料，每日10：00至17:30，切割机噪声扰民。信访人怀疑该店无加工资质。信访人诉求：相关部门核实处理，解决该类问题，建立长效管理机制。,长海路街道恒仁路21号上海承斐商贸有限公司,121.524124,31.308648,https://www.shyp.gov.cn/shypq/sthjdc2025/20251029/493166.html,[2025]杨浦—049号,杨浦区,部分属实,加强管理，营造整洁有序的城市环境。,长海路街道执法部门已现场告知其在噪声敏感建筑物集中区域内不得有金属加工、噪音扰民的行为。,已办结,2025-10-29,0,True
[2025]杨浦—049号-53,2025-10-29,噪声其他,9、信访人反映长海路街道恒仁路35号绿色果园，周末9：00至19:00，在店铺门口处放置喇叭，循环播放促销内容，噪声扰民。信访人诉求：督促相关部门联合执法，加强同类商铺噪声监管，防止问题回潮。,长海路街道恒仁路35号绿色果园,121.524107,31.309091,https://www.shyp.gov.cn/shypq/sthjdc2025/20251029/493166.html,[2025]杨浦—049号,杨浦区,部分属实,加强管理，营造整洁有序的城市环境。,长海路街道执法人员已要求现场负责人将喇叭当场关闭，并严禁其使用喇叭产生噪音，随后对周边商铺也进行逐一告知。,已办结,2025-10-29,0,True
[2025]杨浦—049号-54,2025-10-29,噪声其他,10、信访人反映长海路街道长海路250-2号临至恒仁路的长海路人行道上，每日9：00至19:00，私人两轮电动自行车和部分共享单车乱停放占用盲道，影响通行和市容市貌。信访人诉求为：相关部门对此类问题加强监管，建立长效管理机制，防止问题回潮。,长海路街道长海路250-2号临至恒仁路的长海路人行道上,121.524901,31.309469,https://www.shyp.gov.cn/shypq/sthjdc2025/20251029/493166.html,[2025]杨浦—049号,杨浦区,部分属实,加强管理，营造整洁有序的城市环境。,街道已督促共享单车运营单位对现场发现堆积的单车进行清运，并对乱停放的私人非机动车进行整理。后续，街道将安排人员加强巡查，发现相关情况及时处置。,已办结,2025-10-29,0,True
[2025]杨浦—052号-55,2025-11-03,大气噪声垃圾其他,1、信访人反映四平街道大连路1548号莱克大厦，一楼沿街餐饮店“新贝意式休闲餐厅”、“东北风情农家院”、“郭姐威海渔村”、“京城南门涮肉”、“老城西炭火蛙川湘菜”等餐饮店，每日20:00左右及以后油烟异味扰民。信访人诉求：相关部门联合治理，解决该类问题，建立长效管理机制。,四平街道大连路1548号莱克大厦,121.503691,31.273412,https://www.shyp.gov.cn/shypq/sthjdc2025/20251103/493484.html,[2025]杨浦—052号,杨浦区,部分属实,加强管理，营造整洁有序的城市环境。,四平路街道及生态环境部门执法人员督促商户营业期间正常开启油烟净化和异味处理设施，定期清洗设施并规范清洗台账。生态环境部门执法人员于10月31日夜间对上述3家餐饮店进行油烟气监测，并根据监测结果依法处理。,已办结,2025-11-03,0,True
[2025]杨浦—052号-56,2025-11-03,大气噪声垃圾其他,2、信访人反映江浦路街道许昌路1469号小区以南的工地， 每日6:00至21:00施工期间，噪声和扬尘扰民。信访人诉求：相关部门联合治理，解决该类问题，建立长效管理机制。,江浦路街道许昌路1469号小区以南的工地,121.513675,31.270622,https://www.shyp.gov.cn/shypq/sthjdc2025/20251103/493484.html,[2025]杨浦—052号,杨浦区,部分属实,加强管理，营造整洁有序的城市环境。,江浦路街道执法人员要求工地做好降噪防尘措施以及喷淋的日常开启，保证好扬尘噪声设备的正常运行，同时加强工地巡查力度，发现扬尘超标问题立即处置,已办结,2025-11-03,0,True
[2025]杨浦—052号-57,2025-11-03,大气噪声垃圾其他,3、信访人反映延吉新村街道双阳路445-2号“开锁店”店前台阶上，节假日16:00至18:00，有临时设摊售卖手工鸡蛋卷现象，摊位上有喇叭播放促销内容，噪声扰民且影响市容环境。信访人诉求：相关部门联合治理，解决该类问题，建立长效管理机制。,延吉新村街道双阳路445-2号“开锁店”店前台阶上,121.53149,31.282255,https://www.shyp.gov.cn/shypq/sthjdc2025/20251103/493484.html,[2025]杨浦—052号,杨浦区,部分属实,加强管理，营造整洁有序的城市环境。,延吉新村街道执法人员对经营人进行普法，加强对该区域巡查，对违规行为依法处理，确保社区安静和谐。,已办结,2025-11-03,0,True
[2025]杨浦—052号-58,2025-11-03,大气噪声垃圾其他,4、信访人反映控江街道靖宇中路（近双阳路） “绿优生鲜果品”节假日10:00至18:30，店门口人行道有堆放甘蔗和甘蔗皮情况，影响到市容环境卫生。信访人诉求：相关部门治理该类问题，建立长效管理机制。,控江街道靖宇中路（近双阳路） “绿优生鲜果品”节假日10:00至18:30,121.533934,31.279035,https://www.shyp.gov.cn/shypq/sthjdc2025/20251103/493484.html,[2025]杨浦—052号,杨浦区,部分属实,加强管理，营造整洁有序的城市环境。,控江路街道执法人员已约谈商家责令其立即整改，并立案查处。目前门口的甘蔗和甘蔗皮已被清理，当事人已完成整改。,已办结,2025-11-03,0,True
[2025]杨浦—052号-59,2025-11-03,大气噪声垃圾其他,5、信访人反映大桥街道杨浦区河间路81号 “永昌祥门窗经营部”，节假日10:00至17:30有切割机噪声扰民，信访人怀疑店铺执照无加工资质。信访人诉求：相关部门联合治理，核实店铺加工资质，建立长效管理机制。,大桥街道杨浦区河间路81号 “永昌祥门窗经营部”,121.532351,31.264487,https://www.shyp.gov.cn/shypq/sthjdc2025/20251103/493484.html,[2025]杨浦—052号,杨浦区,部分属实,加强管理，营造整洁有序的城市环境。,大桥街道执法人员对商家进行普法，要求规范经营，同时加强巡查力度，发现违规情况及时处置。,已办结,2025-11-03,0,True
[2025]杨浦—052号-60,2025-11-03,大气噪声垃圾其他,6、信访人反映定海路街道杨浦区爱国路与顺平路路口的废弃围墙内有建筑施工遗留的垃圾和用布遮盖的工地内的临时厕坑。信访人诉求：相关部门治理该类问题，建立长效管理机制。,定海路街道杨浦区爱国路与顺平路路口的废弃围墙内有建筑施工遗留的垃圾和用布遮盖的工地内的临时厕坑,121.550429,31.281298,https://www.shyp.gov.cn/shypq/sthjdc2025/20251103/493484.html,[2025]杨浦—052号,杨浦区,部分属实,加强管理，营造整洁有序的城市环境。,加强巡查，发现情况及时处置。,已办结,2025-11-03,0,True
[2025]杨浦—052号-61,2025-11-03,大气噪声垃圾其他,7、信访人反映长海路街道安波路789号“翔殷幼稚园”以南的安波路人行道和非机动车道内，每日8:00至17:30常有电瓶车和面包车占道设摊，售卖蔬菜、水产品和活禽，影响环境卫生。信访人诉求：相关部门联合治理，解决该类问题，建立长效管理机制。,长海路街道安波路789号“翔殷幼稚园”以南的安波路人行道和非机动车道内,121.526661,31.300914,https://www.shyp.gov.cn/shypq/sthjdc2025/20251103/493484.html,[2025]杨浦—052号,杨浦区,部分属实,加强管理，营造整洁有序的城市环境。,长海路街道执法人员对翔殷幼稚园周边持续开展巡查，发现违法行为及时处置。,已办结,2025-11-03,0,True
[2025]杨浦—052号-62,2025-11-03,大气噪声垃圾其他,8、信访人反映殷行街道包头路430号市光二村西门附近“安客龙虾大排档” 6月下旬至10月下旬，每日18:15至次日凌晨2:00，在人行道旁放置近20个桌椅，影响市容市貌，扩音器叫号时，噪声扰民。信访人诉求：相关部门联合治理，解决该类问题，建立长效管理机制。,殷行街道包头路430号市光二村西门附近“安客龙虾大排档” 6月下旬至10月下旬,121.538725,31.317025,https://www.shyp.gov.cn/shypq/sthjdc2025/20251103/493484.html,[2025]杨浦—052号,杨浦区,部分属实,加强管理，营造整洁有序的城市环境。,殷行街道执法人员予以教育劝阻，并明确各时段均不得使用喇叭产生噪声，同时该店设置等位椅的行为已改正完毕。后续将加强巡查力度，发现违规情况及时处置。,已办结,2025-11-03,0,True
[2025]杨浦—052号-63,2025-11-03,大气噪声垃圾其他,"9、信访人反映五角场街道国定东路与翔殷路路口西南角，每日 9:45至19:00有私人两轮电动车乱停放占用盲道,影响行人通行和市容市貌。信访人诉求：相关部门对此类问题加强监管，建立长效管理机制。",五角场街道国定东路与翔殷路路口西南角,121.519954,31.298235,https://www.shyp.gov.cn/shypq/sthjdc2025/20251103/493484.html,[2025]杨浦—052号,杨浦区,部分属实,加强管理，营造整洁有序的城市环境。,五角场街道工作人员第一时间将乱停放的非机动车移至停车线内。后续将加强巡查力度，在停车高峰期安排专人清理，对乱停放的车主及时劝阻。,已办结,2025-11-03,0,True
[2025]杨浦—052号-64,2025-11-03,大气噪声垃圾其他,10、信访人反映长海路街道世界路（世界路与嫩江路路口） “台铃长续航电动车”，节假日10:00至19:00，售卖的新电动车跨门停放在人行道上非机动车停放区域内，影响市民正常停放非机动车和市容市貌。信访人诉求：相关部门核实处理，建立长效管理机制。,长海路街道世界路（世界路与嫩江路路口） “台铃长续航电动车”,121.522938,31.322419,https://www.shyp.gov.cn/shypq/sthjdc2025/20251103/493484.html,[2025]杨浦—052号,杨浦区,部分属实,加强管理，营造整洁有序的城市环境。,长海路街道执法人员已现场对该店铺负责人进行劝导及宣传教育，该店铺人员已当场自行将售卖的电动车搬至店铺内。后续将加强该处及周边区域巡查力度，保障非机动车区域正常停放及市容环境整洁。,已办结,2025-11-03,0,True
[2025]杨浦—052号-65,2025-11-03,大气噪声垃圾其他,11、信访人反映殷行街道开鲁路71号“方柏门窗经营部”，节假日10:00至17:30，切割机噪声扰民。信访人怀疑店铺无加工资质。信访人诉求：相关部门联合治理，核实店铺加工资质，建立长效管理机制。,殷行街道开鲁路71号“方柏门窗经营部”,121.54005,31.324646,https://www.shyp.gov.cn/shypq/sthjdc2025/20251103/493484.html,[2025]杨浦—052号,杨浦区,部分属实,加强管理，营造整洁有序的城市环境。,该店营业执照经营范围包含不锈钢制品加工服务，但按照《上海市社会生活噪声污染防治办法》，在噪声敏感建筑物集中区域内，不得从事金属切割等易产生噪声污染的商业经营活动。 殷行街道执法人员对商家予以教育劝阻，要求当事人不得在店铺内进行加工。后续将加强巡查力度，发现违规情况及时处置。,已办结,2025-11-03,0,True
[2025]杨浦—053号-66,2025-11-03,大气噪声,1、信访人反映殷行街道军工路（近共青森林公园）路段，整日土方车行驶过程中有道路扬尘和鸣号现象，扬尘、噪声扰民。信访人诉求：相关部门治理该类问题，建立长效管理机制。,殷行街道军工路（近共青森林公园）路段,121.546568,31.314591,https://www.shyp.gov.cn/shypq/sthjdc2025/20251103/493484.html,[2025]杨浦—053号,杨浦区,属实,加强道路大气（扬尘）管理。,1、殷行街道会同相关职能部门自2025年6月起，每周安排一次联合设卡整治工作，查处整治渣土运营车辆未保持机动车容貌整洁、未随车携带处置证的违法行为。 2、殷行街道会同相关职能部门于10月16日至30日，每日7点至23点在军工路/嫩江路开展联合整治，查处渣土车车容不洁、未随车携带处置证的违法行为。 3、殷行街道执法人员约谈渣土清运公司负责人，督促其向渣土车驾驶员做好宣传文明驾驶工作，在运输过程中保持车辆密闭行驶及车容车貌整洁，禁止随意鸣号。,已办结,2025-11-03,0,True
[2025]杨浦—053号-67,2025-11-03,大气噪声,2、信访人反映大桥街道、定海路街道杨树浦路（黎平路至宁国路），整日土方车行驶过程中有道路扬尘和鸣号现象，扬尘、噪声扰民。信访人诉求：相关部门治理该类问题，建立长效管理机制。,大桥街道、定海路街道杨树浦路（黎平路至宁国路）,121.532352,31.268574,https://www.shyp.gov.cn/shypq/sthjdc2025/20251103/493484.html,[2025]杨浦—053号,杨浦区,属实,加强道路大气（扬尘）管理。,1、大桥街道于10月多次开展专项整治活动，对该路段设卡检查，对现场发现的车容不洁的土方车进行了现场整改并处罚款。后续将加强巡查力度及设卡频次，发现违规情况及时处置。 2、定海路街道执法人员于10月多次在杨树浦路沿线设卡，针对大型运输车辆开展日常检查。后续将不定期联合公安、绿化市容等相关职能部门开展道路设卡检查，并定期开展渣土车辆检查，发现违规情况及时处置。 3、公安交管部门在该路段设置了大型车整治卡点，对途经的大型货运车逢车必拦。自10月15日开展专项整治以来，针对土方车行驶过程中有道路扬尘、乱鸣号的问题，已现场查获大型货运车乱鸣号违法及遗洒飘散违法多起。,已办结,2025-11-03,0,True
[2025]杨浦—053号-68,2025-11-03,大气噪声,3、信访人反映定海路街道长阳路与白洋淀路路口，整日土方车行驶、掉头过程中有道路扬尘和鸣号现象，扬尘、噪声扰民。信访人诉求：相关部门治理该类问题，建立长效管理机制。,定海路街道长阳路与白洋淀路路口,121.553262,31.281076,https://www.shyp.gov.cn/shypq/sthjdc2025/20251103/493484.html,[2025]杨浦—053号,杨浦区,属实,加强道路大气（扬尘）管理。,1、定海路街道执法人员联合多部门，于10月16日、10月31日，在上述地址进行设卡检查，并针对大型运输车辆开展日常检查。后续将不定期联合公安、绿化市容等相关职能部门开展道路设卡检查，并定期开展渣土车辆检查，发现违规情况及时处置。 2、公安交管部门在该路段设置了大型车整治卡点，对途经的大型货运车逢车必拦。自10月15日开展专项整治以来，针对土方车行驶过程中有道路扬尘、乱鸣号的问题，已现场查获大型货运车乱鸣号违法及遗洒飘散违法多起。,已办结,2025-11-03,0,True
[2025]杨浦—053号-69,2025-11-03,大气噪声,"4、信访人反映大桥街道眉州路与沈阳路交叉口西北角,“秀芹水果大卖场”附近人行道或非机动车道内，每周一至周六8:30至11:30和14:00至17:00，常有3至6辆加装后座和顶棚的残疾人三轮车堵路揽客，非法运营。有闯红灯、逆向行驶现象，车辆行驶过程中汽油味较浓。车辆牌照有3**64、3**18、4**35、3**50、3**05、4**36、3**25等。信访人诉求：相关部门联合执法，在相关时段进行整治查处，定期不定期加强巡查监管。","大桥街道眉州路与沈阳路交叉口西北角,“秀芹水果大卖场”附近人行道或非机动车道内",121.53545,31.260818,https://www.shyp.gov.cn/shypq/sthjdc2025/20251103/493484.html,[2025]杨浦—053号,杨浦区,属实,加强道路大气（扬尘）管理。,公安交管部门针对投诉人反映的重点时段，对该处开展残疾车交通违法整治，在该路口查获残疾车交通违法2起。同时，通过视频监控驻屏的方式，一经发现残疾车停车候客情况，第一时间调警处置。,已办结,2025-11-03,0,True
[2025]杨浦—050号-70,2025-11-03,大气噪声其他,1、信访人反映大桥街道眉州路451号“弄堂味道”，每日7:00-18:00经营期间，油烟扰民。信访人未发现店铺的营业执照、食品经营许可证和食品安全信息公示牌。信访人诉求：相关部门核实店铺证照，解决油烟问题，建立长效管理机制。,大桥街道眉州路451号“弄堂味道”,121.533997,31.262899,https://www.shyp.gov.cn/shypq/sthjdc2025/20251103/493483.html,[2025]杨浦—050号,杨浦区,部分属实,加强管理，营造整洁有序的城市环境。,大桥街道及市场监管部门执法人员责令当事人上海市杨浦区御味斋餐饮店改正，公示营业执照及食品经营许可证，制发了责令改正通知书，并督促其食品安全信息公示牌上墙。确保油烟净化设备保持运行状态，且定期进行清理。,已办结,2025-11-03,0,True
[2025]杨浦—050号-71,2025-11-03,大气噪声其他,2、信访人反映大桥街道宁国路393号“周丽食品商行”，每日15:30以后经营山东杂粮煎饼，无食品经营许可证，有煎饼碎屑掉落在店门口附近，影响环境卫生。信访人诉求：相关部门对此类问题加强监管，建立长效管理机制。,大桥街道宁国路393号“周丽食品商行”,121.534825,31.266745,https://www.shyp.gov.cn/shypq/sthjdc2025/20251103/493483.html,[2025]杨浦—050号,杨浦区,部分属实,加强管理，营造整洁有序的城市环境。,大桥街道及市场监管部门执法人员责令当事人上海市杨浦区周丽食品商行改正，公示食品经营许可证，制发了责令改正通知书。要求店方加强门前保洁。,已办结,2025-11-03,0,True
[2025]杨浦—050号-72,2025-11-03,大气噪声其他,3、信访人反映延吉新村街道靖宇东路260号“上海环球食品公司”，节假日10：30-19：30，个别摊位上放置喇叭，循环播放促销内容，噪声扰民。信访人诉求：相关部门联合执法，解决该类问题，建立长效管理机制。,延吉新村街道靖宇东路260号“上海环球食品公司”,121.536441,31.289177,https://www.shyp.gov.cn/shypq/sthjdc2025/20251103/493483.html,[2025]杨浦—050号,杨浦区,部分属实,加强管理，营造整洁有序的城市环境。,延吉新村街道执法人员将持续关注该区域，强化对商铺噪声问题的监管，切实维护居民的生活环境安宁。,已办结,2025-11-03,0,True
[2025]杨浦—050号-73,2025-11-03,大气噪声其他,4、信访人反映延吉新村街道靖宇东路248号“尚果汇”，节假日10:30-19:30，店铺门口处放置喇叭，循环播放促销内容，噪声扰民。信访人诉求：相关部门联合执法，解决该类问题，建立长效管理机制。,延吉新村街道靖宇东路248号“尚果汇”,121.537207,31.289601,https://www.shyp.gov.cn/shypq/sthjdc2025/20251103/493483.html,[2025]杨浦—050号,杨浦区,部分属实,加强管理，营造整洁有序的城市环境。,延吉新村街道执法人员将持续关注该区域，强化对商铺噪声问题的监管，切实维护居民的生活环境安宁。,已办结,2025-11-03,0,True
[2025]杨浦—050号-74,2025-11-03,大气噪声其他,5、信访人反映延吉新村街道靖宇东路246-1号“南北服装店”，节假日10:30-19:30，店铺门口处放置喇叭，循环播放促销内容，噪声扰民。信访人诉求：相关部门联合执法，解决该类问题，建立长效管理机制。,延吉新村街道靖宇东路246-1号“南北服装店”,121.537332,31.289689,https://www.shyp.gov.cn/shypq/sthjdc2025/20251103/493483.html,[2025]杨浦—050号,杨浦区,部分属实,加强管理，营造整洁有序的城市环境。,延吉新村街道执法人员将持续关注该区域，强化对商铺噪声问题的监管，切实维护居民的生活环境安宁。,已办结,2025-11-03,0,True
[2025]杨浦—050号-75,2025-11-03,大气噪声其他,6、信访人反映延吉新村街道靖宇东路至松花江路路段之间的敦化路非机动车道（近延吉四村门口），节假日18:00至21:00，白色卡车（豫BN0565）占道设摊售卖水果，影响环境卫生。信访人诉求为：相关部门联合执法，解决该类问题，建立长效管理机制。,延吉新村街道靖宇东路至松花江路路段之间的敦化路非机动车道（近延吉四村门口）,121.537357,31.279944,https://www.shyp.gov.cn/shypq/sthjdc2025/20251103/493483.html,[2025]杨浦—050号,杨浦区,部分属实,加强管理，营造整洁有序的城市环境。,延吉新村街道执法人员增加巡查频次，在居民反映的时段加强值守，确保该区域保持良好的市容环境秩序。,已办结,2025-11-03,0,True
[2025]杨浦—050号-76,2025-11-03,大气噪声其他,7、信访人反映大桥街道宁国路263号龙泽大厦以东的人行道，有地面上喷涂办证广告的现象，每日上午和傍晚遛狗高峰时段，也有市民遛狗不牵绳和不清理狗屎的现象，影响环境卫生和城市形象。信访人诉求为：相关部门对此类问题加强巡查，发现问题及时处置，建立长效管理机制。,大桥街道宁国路263号龙泽大厦以东的人行道,121.535524,31.265152,https://www.shyp.gov.cn/shypq/sthjdc2025/20251103/493483.html,[2025]杨浦—050号,杨浦区,部分属实,加强管理，营造整洁有序的城市环境。,1、龙泽大厦门前地面乱涂写的情况已整改完毕 2、属地居委加大宣传力度，提倡文明养犬、文明遛宠。 3、加强巡查，如发现有遗留狗粪，立即进行清理。,已办结,2025-11-03,0,True
[2025]杨浦—050号-77,2025-11-03,大气噪声其他,8、信访人反映延吉新村街道靖宇中路（靖宇中路和双阳路交叉口附近）居民住宅存在居改非现象，每日10：30至18:00维修两轮电动自行车，有打磨操作，影响小区环境卫生且噪声扰民。信访人诉求：相关部门联合执法，解决该类问题，建立长效管理机制。,延吉新村街道靖宇中路（靖宇中路和双阳路交叉口附近）居民住宅存在居改非现象,121.534761,31.277423,https://www.shyp.gov.cn/shypq/sthjdc2025/20251103/493483.html,[2025]杨浦—050号,杨浦区,部分属实,加强管理，营造整洁有序的城市环境。,延吉新村街道执法人员将增加巡查频次，在居民反映的时段加强值守，确保该区域保持良好的市容环境秩序。,已办结,2025-11-03,0,True
[2025]杨浦—050号-78,2025-11-03,大气噪声其他,9、信访人反映延吉新村街道双阳路497号“状元炒货”，休息日10:30-19:00，店铺内或店铺门口处放置喇叭，循环播放促销内容，噪声扰民。信访人诉求：相关部门联合执法，解决该类问题，建立长效管理机制。,延吉新村街道双阳路497号“状元炒货”,121.531159,31.283008,https://www.shyp.gov.cn/shypq/sthjdc2025/20251103/493483.html,[2025]杨浦—050号,杨浦区,部分属实,加强管理，营造整洁有序的城市环境。,延吉新村街道执法人员对经营人进行普法，加强监管该区域，通过固定及错时巡查和居民反馈，对违规行为依法处理，确保社区安静和谐。,已办结,2025-11-03,0,True
[2025]杨浦—050号-79,2025-11-03,大气噪声其他,10、信访人反映大桥街道眉州路671弄弄堂口至眉州路707号路段的人行道，每日上午和傍晚遛狗高峰时段，有市民遛狗不牵绳和不清理狗屎的现象。信访人诉求为：相关部门对此类问题加强巡查，发现问题及时处置，建立长效管理机制。,大桥街道眉州路671弄弄堂口至眉州路707号路段的人行道,121.531863,31.265393,https://www.shyp.gov.cn/shypq/sthjdc2025/20251103/493483.html,[2025]杨浦—050号,杨浦区,部分属实,加强管理，营造整洁有序的城市环境。,1、属地居委加大宣传力度，提倡文明养犬、文明遛宠。 2、加强巡查，如发现有遗留狗粪，立即进行清理。,已办结,2025-11-03,0,True
[2025]杨浦—051号-80,2025-11-03,噪声,信访人对《群众信访举报转办及被督察区查处情况一览表》中编号[2025]杨浦—031号的回复不满意，信访人重新提交了具备CMA资质的检测机构出具的交通噪声检测报告，信访人认为：1、以“市相关部门未收到过监测报告”即认定设施完好、情况属实并已办结的调查程序不完整；2、高层住宅实测噪声数据严重超标，“声屏障设施完好”与“噪声达标”无对应关系；3、区职能部门的相关工作安排应更加明确具体。来信随附具备CMA资质的检测机构出具的交通噪声检测报告。信访人诉求：1、重新核实噪声问题并将信访人提交的检测报告纳入调查依据；2、委托具备CMA资质的第三方机构重新检测噪声；3、研究加装高层隔音屏或吸音装置的可行性，制定阶段性整改计划；4、完成调查和整改后，再确认办结。,地址缺失,,,https://www.shyp.gov.cn/shypq/sthjdc2025/20251103/493483.html,[2025]杨浦—051号,长白新村街道,属实,持续与市主管部门沟通。,针对居民反馈的相关情况，区建管委第一时间与市主管部门对接沟通，并将居民提供的噪声检测报告提交。后续区建管委将持续对接跟踪相关处理情况并会同街道做好居民工作。,阶段性办结,2025-11-03,0,False
